City_ID,City,Country,Date,Lat,Lng,Max Temp,Humidity,Cloudiness,Wind Speed,Current Description
0,Hilo,US,2022-01-30 18:20:42,19.7297,-155.09,74.62,71,40,6.91,scattered clouds
1,Hermanus,ZA,2022-01-30 18:20:43,-34.4187,19.2345,72.81,71,40,17.34,scattered clouds
2,Namatanai,PG,2022-01-30 18:20:43,-3.6667,152.4333,78.55,82,92,3.02,light rain
3,Katherine,AU,2022-01-30 18:20:44,-14.4667,132.2667,79.12,83,99,10.36,overcast clouds
4,Nikolskoye,RU,2022-01-30 18:20:45,59.7035,30.7861,30.7,96,100,7.47,snow
5,Katsuura,JP,2022-01-30 18:20:45,35.1333,140.3,41.02,67,100,12.48,overcast clouds
6,Hobart,AU,2022-01-30 18:20:17,-42.8794,147.3294,57.06,96,2,1.01,clear sky
7,Alofi,NU,2022-01-30 18:20:46,-19.0595,-169.9187,73.29,94,95,2.3,overcast clouds
8,Pauini,BR,2022-01-30 18:20:47,-7.7136,-66.9764,83.32,75,90,2.21,overcast clouds
9,Nautla,MX,2022-01-30 18:20:48,20.2167,-96.7833,67.5,68,2,6.4,clear sky
10,Lompoc,US,2022-01-30 18:17:47,34.6391,-120.4579,70.12,58,0,8.99,clear sky
11,Coffs Harbour,AU,2022-01-30 18:19:29,-30.3,153.1333,72.14,96,100,6.91,overcast clouds
12,Albany,US,2022-01-30 18:18:48,42.6001,-73.9662,21.67,37,42,4.0,scattered clouds
13,San Quintin,MX,2022-01-30 18:20:51,30.4833,-115.95,62.31,49,0,3.6,clear sky
14,Klaksvik,FO,2022-01-30 18:20:52,62.2266,-6.589,38.32,82,100,15.93,overcast clouds
15,Hithadhoo,MV,2022-01-30 18:20:52,-0.6,73.0833,81.97,69,100,8.43,overcast clouds
16,Port Alfred,ZA,2022-01-30 18:20:53,-33.5906,26.891,74.97,86,89,21.14,overcast clouds
17,Paulo Ramos,BR,2022-01-30 18:20:54,-4.2167,-45.1833,84.06,67,75,5.01,broken clouds
18,Busselton,AU,2022-01-30 18:20:55,-33.65,115.3333,64.09,78,3,18.39,clear sky
19,Lorengau,PG,2022-01-30 18:20:55,-2.0226,147.2712,79.23,82,100,10.45,overcast clouds
20,Jamestown,US,2022-01-30 18:16:01,42.097,-79.2353,20.52,51,75,3.0,broken clouds
21,Yingcheng,CN,2022-01-30 18:20:56,30.95,113.55,35.65,76,100,1.03,overcast clouds
22,Port Hedland,AU,2022-01-30 18:20:57,-20.3167,118.5667,82.45,83,52,18.41,broken clouds
23,Wilmington,US,2022-01-30 18:18:38,34.2257,-77.9447,45.86,30,0,8.05,clear sky
24,Mahon,ES,2022-01-30 18:20:58,39.8885,4.2658,50.56,76,0,5.75,clear sky
25,Luderitz,NA,2022-01-30 18:20:59,-26.6481,15.1594,69.71,75,68,10.63,broken clouds
26,Puerto Ayora,EC,2022-01-30 18:20:59,-0.7393,-90.3518,84.16,71,100,8.81,overcast clouds
27,Kapaa,US,2022-01-30 18:21:00,22.0752,-159.319,74.48,70,20,13.8,few clouds
28,Ushuaia,AR,2022-01-30 18:21:01,-54.8,-68.3,46.06,76,75,23.02,light intensity drizzle
29,Te Anau,NZ,2022-01-30 18:21:01,-45.4167,167.7167,53.47,95,16,0.83,few clouds
30,Miri,MY,2022-01-30 18:21:02,4.4148,114.0089,75.34,100,40,3.44,scattered clouds
31,Punta Arenas,CL,2022-01-30 18:20:25,-53.15,-70.9167,53.71,43,75,28.77,broken clouds
32,Cape Town,ZA,2022-01-30 18:16:10,-33.9258,18.4232,72.1,72,0,1.99,clear sky
33,Sakakah,SA,2022-01-30 18:21:04,29.9697,40.2064,54.97,40,63,12.71,broken clouds
34,Rikitea,PF,2022-01-30 18:21:05,-23.1203,-134.9692,76.17,61,59,4.29,broken clouds
35,Bengkulu,ID,2022-01-30 18:21:06,-3.8004,102.2655,75.9,93,100,4.97,moderate rain
36,Port Elizabeth,ZA,2022-01-30 18:21:07,-33.918,25.5701,76.1,85,84,15.7,broken clouds
37,Ilulissat,GL,2022-01-30 18:17:46,69.2167,-51.1,8.62,66,75,17.27,light shower snow
38,Vardo,NO,2022-01-30 18:20:21,70.3705,31.1107,26.35,86,75,20.71,broken clouds
39,Qaanaaq,GL,2022-01-30 18:21:09,77.484,-69.3632,-7.49,71,100,11.43,overcast clouds
40,Jiangyou,CN,2022-01-30 18:21:09,31.7667,104.7167,40.21,76,96,2.17,overcast clouds
41,Vaini,TO,2022-01-30 18:21:10,-21.2,-175.2,80.47,76,100,11.72,overcast clouds
42,Bowling Green,US,2022-01-30 18:17:46,36.9903,-86.4436,50.11,43,0,9.22,clear sky
43,Grindavik,IS,2022-01-30 18:21:11,63.8424,-22.4338,26.55,80,75,33.38,light snow
44,Norman Wells,CA,2022-01-30 18:21:12,65.282,-126.8329,-32.76,68,40,2.3,scattered clouds
45,Dikson,RU,2022-01-30 18:21:13,73.5069,80.5464,-1.12,92,100,21.39,overcast clouds
46,Mattru,SL,2022-01-30 18:21:14,7.6244,-11.8332,89.31,43,36,7.83,scattered clouds
47,Mataura,NZ,2022-01-30 18:21:14,-46.1927,168.8643,58.48,99,45,1.9,scattered clouds
48,Carnarvon,AU,2022-01-30 18:21:15,-24.8667,113.6333,80.67,78,13,18.41,few clouds
49,Cabedelo,BR,2022-01-30 18:20:49,-6.9811,-34.8339,88.47,68,93,13.78,overcast clouds
50,Marsa Matruh,EG,2022-01-30 18:21:16,31.3525,27.2453,53.87,70,56,24.63,broken clouds
51,Kismayo,SO,2022-01-30 18:21:17,-0.3582,42.5454,77.86,77,25,16.35,scattered clouds
52,Sola,VU,2022-01-30 18:21:18,-13.8833,167.55,79.79,83,100,16.67,heavy intensity rain
53,Aklavik,CA,2022-01-30 18:21:19,68.2191,-135.0107,5.0,72,100,13.8,light snow
54,East London,ZA,2022-01-30 18:21:20,-33.0153,27.9116,74.34,88,20,13.8,few clouds
55,Erenhot,CN,2022-01-30 18:16:33,43.6475,111.9767,6.39,89,100,16.44,overcast clouds
56,Massaguet,TD,2022-01-30 18:21:21,12.4755,15.4365,77.04,13,100,9.64,overcast clouds
57,Bethel,US,2022-01-30 18:21:22,41.3712,-73.414,25.43,48,0,4.0,clear sky
58,Castro,BR,2022-01-30 18:21:22,-24.7911,-50.0119,64.58,98,100,5.5,overcast clouds
59,Umm Lajj,SA,2022-01-30 18:21:23,25.0213,37.2685,66.34,59,93,11.83,overcast clouds
60,Codrington,AU,2022-01-30 18:21:24,-38.2667,141.9667,61.38,98,9,7.14,clear sky
61,Vysokogornyy,RU,2022-01-30 18:21:24,50.1167,139.15,-22.68,100,98,3.69,overcast clouds
62,Haines Junction,CA,2022-01-30 18:21:25,60.7522,-137.5108,8.55,66,98,10.36,overcast clouds
63,Rawah,IQ,2022-01-30 18:21:26,34.4816,41.9093,49.1,53,12,9.24,few clouds
64,Muros,ES,2022-01-30 18:21:26,42.7762,-9.0603,57.7,60,0,3.27,clear sky
65,Upernavik,GL,2022-01-30 18:21:27,72.7868,-56.1549,-3.01,71,100,9.6,overcast clouds
66,Baramati,IN,2022-01-30 18:21:28,18.15,74.5833,70.72,26,1,3.49,clear sky
67,Myitkyina,MM,2022-01-30 18:21:28,25.3833,97.4,53.53,77,34,2.15,scattered clouds
68,Chokurdakh,RU,2022-01-30 18:21:29,70.6333,147.9167,-29.83,89,33,1.07,scattered clouds
69,Mayo,US,2022-01-30 18:21:30,38.8876,-76.5119,32.34,42,40,3.0,scattered clouds
70,Barrow,US,2022-01-30 18:19:14,71.2906,-156.7887,-11.18,77,40,10.36,scattered clouds
71,Eureka,US,2022-01-30 18:19:55,40.8021,-124.1637,49.93,83,91,5.01,overcast clouds
72,Provideniya,RU,2022-01-30 18:21:32,64.3833,-173.3,5.32,80,1,7.87,clear sky
73,Tanout,NE,2022-01-30 18:21:33,14.9709,8.8879,67.15,12,16,14.76,few clouds
74,Bambous Virieux,MU,2022-01-30 18:21:33,-20.3428,57.7575,80.85,83,75,8.05,broken clouds
75,Torbay,CA,2022-01-30 18:17:49,47.6666,-52.7314,47.17,85,100,28.77,overcast clouds
76,Gushikawa,JP,2022-01-30 18:21:35,26.3544,127.8686,58.23,58,100,17.27,overcast clouds
77,Lebu,CL,2022-01-30 18:21:35,-37.6167,-73.65,63.14,66,55,16.91,broken clouds
78,Ribeira Grande,PT,2022-01-30 18:21:36,38.5167,-28.7,57.6,77,40,12.66,scattered clouds
79,Avarua,CK,2022-01-30 18:17:57,-21.2078,-159.775,78.85,89,75,9.22,moderate rain
80,Kaeo,NZ,2022-01-30 18:21:37,-35.1,173.7833,63.32,95,100,11.68,overcast clouds
81,Ust-Karsk,RU,2022-01-30 18:21:38,52.7011,118.8077,-20.18,100,31,1.83,scattered clouds
82,New Norfolk,AU,2022-01-30 18:21:38,-42.7826,147.0587,56.71,74,3,1.99,clear sky
83,Kurali,IN,2022-01-30 18:21:39,30.8315,76.5785,51.1,73,4,5.75,clear sky
84,Tiksi,RU,2022-01-30 18:21:40,71.6872,128.8694,-17.25,100,82,4.14,broken clouds
85,Gualaceo,EC,2022-01-30 18:21:41,-2.9,-78.7833,69.46,65,100,2.73,light rain
86,Jiwani,PK,2022-01-30 18:21:41,25.05,61.7417,72.72,75,0,17.27,clear sky
87,Lensk,RU,2022-01-30 18:21:42,60.7253,114.9278,-18.33,100,65,3.78,broken clouds
88,Ostersund,SE,2022-01-30 18:21:43,63.1792,14.6357,27.05,80,0,14.97,clear sky
89,Airai,TL,2022-01-30 18:21:43,-8.9266,125.4092,61.36,94,96,3.67,overcast clouds
90,Padang,ID,2022-01-30 18:21:44,-0.9492,100.3543,75.25,92,100,3.49,overcast clouds
91,Rio Gallegos,AR,2022-01-30 18:21:45,-51.6226,-69.2181,57.25,33,40,33.38,scattered clouds
92,Sao Filipe,CV,2022-01-30 18:21:45,14.8961,-24.4956,71.82,70,100,15.59,overcast clouds
93,Arraial Do Cabo,BR,2022-01-30 18:21:46,-22.9661,-42.0278,89.56,58,40,8.05,scattered clouds
94,Rio Branco,BR,2022-01-30 18:21:47,-9.9747,-67.81,77.61,88,75,2.3,broken clouds
95,Asau,RO,2022-01-30 18:21:47,46.4333,26.4,38.95,66,40,17.69,scattered clouds
96,Evensk,RU,2022-01-30 18:21:48,61.95,159.2333,18.41,83,100,25.97,light snow
97,Saint George,US,2022-01-30 18:21:49,37.1041,-113.5841,55.35,28,0,1.99,clear sky
98,Atar,MR,2022-01-30 18:21:50,20.5169,-13.0499,86.05,19,100,9.22,overcast clouds
99,Kruisfontein,ZA,2022-01-30 18:21:50,-34.0033,24.7314,73.89,82,82,14.38,broken clouds
100,Tuktoyaktuk,CA,2022-01-30 18:19:17,69.4541,-133.0374,-2.2,78,100,19.57,light snow
101,Mitsamiouli,KM,2022-01-30 18:21:52,-11.3847,43.2844,82.69,69,40,4.61,scattered clouds
102,Narsaq,GL,2022-01-30 18:21:52,60.9167,-46.05,12.42,63,100,8.3,light snow
103,Fairbanks,US,2022-01-30 18:18:39,64.8378,-147.7164,-26.01,71,40,0.0,scattered clouds
104,Tuatapere,NZ,2022-01-30 18:21:53,-46.1333,167.6833,58.82,95,49,2.48,scattered clouds
105,Muroran,JP,2022-01-30 18:21:54,42.3172,140.9881,21.31,68,98,20.33,light snow
106,Mogadishu,SO,2022-01-30 18:18:43,2.0371,45.3438,77.54,83,46,21.3,scattered clouds
107,Bluff,NZ,2022-01-30 18:21:43,-46.6,168.3333,58.8,92,87,3.58,overcast clouds
108,Rundu,NA,2022-01-30 18:21:56,-17.9333,19.7667,67.87,90,99,3.49,light rain
109,Sao Joao Da Barra,BR,2022-01-30 18:21:56,-21.6403,-41.0511,87.89,73,61,8.5,broken clouds
110,Les Cayes,HT,2022-01-30 18:21:57,18.2,-73.75,85.51,52,12,8.16,few clouds
111,Chuy,UY,2022-01-30 18:21:58,-33.6971,-53.4616,79.32,54,98,12.62,overcast clouds
112,Shizilu,CN,2022-01-30 18:21:58,35.1711,118.8289,30.67,64,6,6.11,clear sky
113,Tateyama,JP,2022-01-30 18:21:59,34.9833,139.8667,40.93,42,75,18.41,broken clouds
114,Khash,IR,2022-01-30 18:22:00,28.2211,61.2158,52.5,55,0,4.63,clear sky
115,Inhambane,MZ,2022-01-30 18:22:01,-23.865,35.3833,76.98,78,20,4.61,few clouds
116,Mount Gambier,AU,2022-01-30 18:22:02,-37.8333,140.7667,62.51,94,100,6.91,overcast clouds
117,Seoul,KR,2022-01-30 18:20:00,37.5683,126.9778,20.64,73,0,1.14,clear sky
118,Simao,CN,2022-01-30 18:22:03,22.7886,100.9748,46.67,61,0,2.42,clear sky
119,San Andres,CO,2022-01-30 18:22:04,12.5847,-81.7006,84.22,65,20,9.22,few clouds
120,Constantine,DZ,2022-01-30 18:22:04,36.365,6.6147,45.81,57,0,6.91,clear sky
121,Charters Towers,AU,2022-01-30 18:22:05,-20.1,146.2667,73.53,82,3,5.14,clear sky
122,Ancud,CL,2022-01-30 18:22:06,-41.8697,-73.8203,63.43,56,39,11.43,scattered clouds
123,Poum,NC,2022-01-30 18:22:06,-20.2333,164.0167,79.7,79,99,7.94,overcast clouds
124,Mahebourg,MU,2022-01-30 18:22:08,-20.4081,57.7,80.89,83,75,8.05,broken clouds
125,Firminy,FR,2022-01-30 18:22:08,45.3873,4.2907,40.15,87,100,2.3,overcast clouds
126,Pisco,PE,2022-01-30 18:22:09,-13.7,-76.2167,74.01,68,0,10.36,clear sky
127,Urubicha,BO,2022-01-30 18:22:10,-15.3833,-62.95,85.64,62,31,4.14,scattered clouds
128,Prince Rupert,CA,2022-01-30 18:20:58,54.3161,-130.3201,38.89,93,100,6.91,overcast clouds
129,Yellowknife,CA,2022-01-30 18:22:11,62.456,-114.3525,-12.48,77,100,8.05,light snow
130,Butaritari,KI,2022-01-30 18:22:12,3.0707,172.7902,81.75,77,64,21.74,light rain
131,Omboue,GA,2022-01-30 18:22:12,-1.5746,9.2618,79.25,79,100,4.36,overcast clouds
132,Salalah,OM,2022-01-30 18:21:48,17.0151,54.0924,75.29,69,0,3.44,clear sky
133,Evanston,US,2022-01-30 18:21:01,42.0411,-87.6901,31.1,73,100,3.0,overcast clouds
134,Souillac,MU,2022-01-30 18:22:14,-20.5167,57.5167,80.98,83,75,8.05,light rain
135,Pombia,IT,2022-01-30 18:22:15,45.653,8.6336,53.47,62,0,4.61,clear sky
136,Lunenburg,CA,2022-01-30 18:20:02,44.3835,-64.3155,25.21,67,94,25.32,overcast clouds
137,Albenga,IT,2022-01-30 18:22:16,44.0529,8.216,55.35,82,75,1.01,broken clouds
138,Gimli,CA,2022-01-30 18:22:17,50.6336,-96.9907,12.13,72,100,12.66,overcast clouds
139,Thompson,CA,2022-01-30 18:22:17,55.7435,-97.8558,3.36,78,20,4.61,few clouds
140,Nantucket,US,2022-01-30 18:20:16,41.2835,-70.0995,23.11,59,0,13.8,clear sky
141,Den Helder,NL,2022-01-30 18:22:19,52.9599,4.7593,43.02,73,75,8.01,broken clouds
142,Mayumba,GA,2022-01-30 18:22:20,-3.432,10.6554,78.53,85,91,5.37,overcast clouds
143,Gniezno,PL,2022-01-30 18:22:21,52.5348,17.5826,41.72,62,81,25.28,broken clouds
144,Gondal,IN,2022-01-30 18:22:21,21.9667,70.8,65.57,42,0,7.45,clear sky
145,Nata,PA,2022-01-30 18:22:23,8.3333,-80.5167,89.47,40,11,20.6,few clouds
146,Margate,GB,2022-01-30 18:22:23,51.3813,1.3862,42.69,77,93,4.0,overcast clouds
147,Georgetown,MY,2022-01-30 18:21:52,5.4112,100.3354,82.89,88,20,0.0,few clouds
148,Sao Jose Da Coroa Grande,BR,2022-01-30 18:22:24,-8.8978,-35.1478,82.85,70,85,9.69,overcast clouds
149,Viedma,AR,2022-01-30 18:22:25,-40.8135,-62.9967,61.09,48,65,17.56,broken clouds
150,Kamenka,RU,2022-01-30 18:22:26,51.3223,42.7678,23.76,93,100,13.06,overcast clouds
151,A Coruna,ES,2022-01-30 18:22:26,43.3713,-8.396,57.65,75,0,1.99,clear sky
152,Maine-Soroa,NE,2022-01-30 18:22:27,13.2114,12.0241,70.32,14,24,9.98,few clouds
153,Pasuruan,ID,2022-01-30 18:22:28,-7.6453,112.9075,76.89,89,100,3.94,overcast clouds
154,Mae Hong Son,TH,2022-01-30 18:22:29,19.3003,97.9685,57.72,57,1,1.21,clear sky
155,Svetlaya,RU,2022-01-30 18:22:29,46.5389,138.3297,-0.54,79,11,9.46,few clouds
156,Yinchuan,CN,2022-01-30 18:22:30,38.4681,106.2731,17.92,28,0,6.96,clear sky
157,Ucluelet,CA,2022-01-30 18:22:31,48.9329,-125.5528,48.09,94,100,5.01,light rain
158,Vangaindrano,MG,2022-01-30 18:22:32,-23.35,47.6,74.08,81,1,4.85,clear sky
159,Esterhazy,CA,2022-01-30 18:19:10,50.65,-102.0843,22.05,91,87,6.13,overcast clouds
160,Tiarei,PF,2022-01-30 18:22:33,-17.5333,-149.3333,75.22,75,80,10.02,broken clouds
161,Acapulco,MX,2022-01-30 18:20:56,16.8634,-99.8901,84.02,70,0,6.91,clear sky
162,Mana,GF,2022-01-30 18:22:34,5.6592,-53.7767,82.81,67,44,11.14,scattered clouds
163,Zvishavane,ZW,2022-01-30 18:22:35,-20.3267,30.0665,68.68,84,43,5.39,scattered clouds
164,Crixas,BR,2022-01-30 18:22:35,-14.5489,-49.9692,75.07,85,100,6.11,overcast clouds
165,Tomatlan,MX,2022-01-30 18:22:36,19.9333,-105.25,86.16,35,2,6.22,clear sky
166,Sitka,US,2022-01-30 18:22:37,57.0531,-135.33,37.29,70,100,10.36,overcast clouds
167,Hong Gai,VN,2022-01-30 18:22:37,20.956,107.0946,55.31,89,100,6.73,overcast clouds
168,Denpasar,ID,2022-01-30 18:18:47,-8.65,115.2167,80.26,88,40,3.44,scattered clouds
169,Kerouane,GN,2022-01-30 18:22:38,9.2667,-9.0167,91.24,10,6,6.73,clear sky
170,Mar Del Plata,AR,2022-01-30 18:22:39,-38.0023,-57.5575,86.02,55,40,18.99,scattered clouds
171,Trairi,BR,2022-01-30 18:22:40,-3.2778,-39.2689,78.3,85,100,7.16,overcast clouds
172,Dudinka,RU,2022-01-30 18:22:41,69.4058,86.1778,-12.98,98,89,8.72,overcast clouds
173,Bulungu,CD,2022-01-30 18:22:41,-4.55,18.6,77.65,67,94,2.46,overcast clouds
174,Asyut,EG,2022-01-30 18:22:42,27.181,31.1837,54.54,39,11,6.44,few clouds
175,Inhumas,BR,2022-01-30 18:22:43,-16.3578,-49.4961,82.13,91,100,9.26,overcast clouds
176,Zhaoyuan,CN,2022-01-30 18:22:43,37.3592,120.3964,28.78,50,6,7.83,clear sky
177,Fare,PF,2022-01-30 18:22:44,-16.7,-151.0167,80.02,73,39,8.88,light rain
178,Kodiak,US,2022-01-30 18:21:40,57.79,-152.4072,24.31,68,20,13.8,few clouds
179,Krasnoselkup,RU,2022-01-30 18:22:46,65.7,82.4667,-6.23,100,96,8.03,overcast clouds
180,Atuona,PF,2022-01-30 18:22:46,-9.8,-139.0333,77.22,79,10,13.2,light rain
181,Adrar,MR,2022-01-30 18:22:47,20.5022,-10.0711,82.49,10,100,10.87,overcast clouds
182,Clyde River,CA,2022-01-30 18:22:48,70.4692,-68.5914,-16.37,69,75,2.3,snow
183,Saskylakh,RU,2022-01-30 18:22:48,71.9167,114.0833,-19.21,100,100,2.86,overcast clouds
184,Laguna,US,2022-01-30 18:22:49,38.421,-121.4238,59.65,70,0,1.99,clear sky
185,Krasnogorsk,RU,2022-01-30 18:22:50,55.8225,37.3181,26.65,93,100,13.42,snow
186,Riyadh,SA,2022-01-30 18:22:50,24.6877,46.7219,60.94,37,0,12.21,clear sky
187,Sur,OM,2022-01-30 18:22:51,22.5667,59.5289,72.28,67,2,1.3,clear sky
188,Bandarbeyla,SO,2022-01-30 18:22:52,9.4942,50.8122,76.05,73,56,15.95,broken clouds
189,Byron Bay,AU,2022-01-30 18:21:48,-28.65,153.6167,73.87,89,89,7.09,light rain
190,Missoula,US,2022-01-30 18:22:53,47.0166,-113.8009,31.53,70,93,5.08,overcast clouds
191,Pointe-Noire,CG,2022-01-30 18:22:54,-4.7761,11.8635,80.67,89,20,5.75,few clouds
192,Faanui,PF,2022-01-30 18:22:55,-16.4833,-151.75,79.77,73,68,6.87,light rain
193,Porto Novo,BJ,2022-01-30 18:22:55,6.4965,2.6036,84.02,54,79,6.6,broken clouds
194,Chissamba,AO,2022-01-30 18:22:56,-12.1667,17.3333,64.45,89,98,5.14,overcast clouds
195,Cabo San Lucas,MX,2022-01-30 18:19:14,22.8909,-109.9124,78.51,67,20,6.91,few clouds
196,Bedford,GB,2022-01-30 18:21:52,52.1346,-0.4663,44.74,72,0,16.11,clear sky
197,Srednekolymsk,RU,2022-01-30 18:22:58,67.45,153.6833,-22.88,99,100,4.79,overcast clouds
198,Perry,US,2022-01-30 18:22:59,37.2506,-83.1999,42.94,50,95,12.01,overcast clouds
199,Naron,ES,2022-01-30 18:19:06,43.5167,-8.1528,54.01,77,20,4.38,few clouds
200,Antalaha,MG,2022-01-30 18:23:00,-14.9003,50.2788,77.11,86,88,9.78,overcast clouds
201,Teeli,RU,2022-01-30 18:23:01,51.0333,90.2333,-18.31,91,20,1.66,few clouds
202,Khatanga,RU,2022-01-30 18:23:01,71.9667,102.5,-8.3,98,98,9.75,overcast clouds
203,Havoysund,NO,2022-01-30 18:23:02,70.9963,24.6622,31.08,66,95,14.5,overcast clouds
204,Leningradskiy,RU,2022-01-30 18:19:49,69.3833,178.4167,-8.9,93,100,0.51,overcast clouds
205,Samarai,PG,2022-01-30 18:23:03,-10.6167,150.6667,80.62,79,100,10.22,overcast clouds
206,Flin Flon,CA,2022-01-30 18:23:04,54.7682,-101.865,6.64,72,100,5.75,light snow
207,Pombas,CV,2022-01-30 18:23:05,17.1503,-25.0201,69.58,70,100,15.35,overcast clouds
208,Half Moon Bay,US,2022-01-30 18:23:05,37.4636,-122.4286,58.44,81,75,1.99,haze
209,Roma,US,2022-01-30 18:23:06,43.2128,-75.4557,22.12,43,0,0.0,clear sky
210,Prainha,BR,2022-01-30 18:23:06,-1.8,-53.48,79.14,80,96,2.24,overcast clouds
211,Celestun,MX,2022-01-30 18:23:07,20.8667,-90.4,72.28,49,43,9.22,scattered clouds
212,San Cristobal,VE,2022-01-30 18:23:08,7.7669,-72.225,69.98,40,88,4.97,overcast clouds
213,Burgos,ES,2022-01-30 18:23:08,42.3394,-3.7079,41.41,52,0,6.91,clear sky
214,Hambantota,LK,2022-01-30 18:23:09,6.1241,81.1185,77.38,87,16,11.74,few clouds
215,Xai-Xai,MZ,2022-01-30 18:23:10,-25.0519,33.6442,75.9,79,16,8.37,few clouds
216,Iralaya,HN,2022-01-30 18:23:10,15.0,-83.2333,78.89,71,58,19.51,broken clouds
217,Port Lincoln,AU,2022-01-30 18:23:11,-34.7333,135.8667,66.16,84,1,10.69,clear sky
218,Shingu,JP,2022-01-30 18:23:12,33.7333,135.9833,37.26,76,66,7.52,broken clouds
219,Itarema,BR,2022-01-30 18:23:14,-2.9248,-39.9167,77.05,86,100,10.18,overcast clouds
220,San Patricio,US,2022-01-30 18:23:14,28.017,-97.5169,71.69,48,0,11.45,clear sky
221,Hasaki,JP,2022-01-30 18:23:15,35.7333,140.8333,32.4,49,96,13.98,overcast clouds
222,Kununurra,AU,2022-01-30 18:23:16,-15.7667,128.7333,80.58,78,100,10.36,overcast clouds
223,Kaitangata,NZ,2022-01-30 18:23:16,-46.2817,169.8464,53.55,96,50,2.42,scattered clouds
224,Westport,US,2022-01-30 18:23:17,41.1415,-73.3579,26.8,43,0,1.99,clear sky
225,Antofagasta,CL,2022-01-30 18:22:25,-23.65,-70.4,70.21,64,19,10.56,few clouds
226,Umm Kaddadah,SD,2022-01-30 18:23:18,13.6017,26.6876,64.0,13,1,12.37,clear sky
227,Bobo Dioulasso,BF,2022-01-30 18:23:19,11.1771,-4.2979,88.25,9,33,10.36,scattered clouds
228,Birjand,IR,2022-01-30 18:23:20,32.8663,59.2211,32.47,23,0,6.91,clear sky
229,Telimele,GN,2022-01-30 18:23:20,10.9167,-13.3333,95.67,12,53,3.18,broken clouds
230,Cap Malheureux,MU,2022-01-30 18:23:21,-19.9842,57.6142,81.09,74,40,1.01,scattered clouds
231,Waingapu,ID,2022-01-30 18:23:22,-9.6567,120.2641,79.61,78,100,11.03,overcast clouds
232,Victoria,HK,2022-01-30 18:19:58,22.2855,114.1577,59.32,75,52,1.01,broken clouds
233,Pierre,US,2022-01-30 18:23:23,44.3683,-100.351,32.92,59,0,10.36,clear sky
234,Roald,NO,2022-01-30 18:23:24,62.5833,6.1333,33.33,93,75,3.44,broken clouds
235,Shenjiamen,CN,2022-01-30 18:23:25,29.9576,122.298,40.95,67,23,14.52,few clouds
236,Syracuse,IT,2022-01-30 18:23:25,37.0881,15.2792,54.99,61,0,2.13,clear sky
237,San Juan De La Maguana,DO,2022-01-30 18:23:26,18.8059,-71.2299,83.07,39,6,3.49,clear sky
238,Mashhad,IR,2022-01-30 18:23:27,36.297,59.6062,37.54,75,0,4.61,clear sky
239,Dwarka,IN,2022-01-30 18:23:27,22.2394,68.9678,70.36,76,0,10.45,clear sky
240,Lithakia,GR,2022-01-30 18:23:28,37.7167,20.8333,48.58,81,0,5.75,clear sky
241,Sydney,AU,2022-01-30 18:19:05,-33.8679,151.2073,70.11,91,20,3.56,few clouds
242,Cyangugu,RW,2022-01-30 18:23:29,-2.4846,28.9075,62.4,93,98,2.26,overcast clouds
243,Tyukhtet,RU,2022-01-30 18:23:30,56.5389,89.3011,-5.89,96,47,4.43,scattered clouds
244,Waipawa,NZ,2022-01-30 18:23:31,-41.4122,175.5153,56.03,84,94,3.67,overcast clouds
245,Paka,MY,2022-01-30 18:23:31,4.6374,103.4368,75.13,88,82,0.0,broken clouds
246,Saint-Philippe,RE,2022-01-30 18:23:32,-21.3585,55.7679,80.19,79,60,10.74,broken clouds
247,Jining,CN,2022-01-30 18:23:33,35.405,116.5814,37.99,1,11,8.63,few clouds
248,Katobu,ID,2022-01-30 18:23:34,-4.9408,122.5276,76.86,86,100,2.26,moderate rain
249,Khandyga,RU,2022-01-30 18:23:34,62.6667,135.6,-39.48,100,48,1.81,scattered clouds
250,Cherskiy,RU,2022-01-30 18:22:47,68.75,161.3,-24.0,97,88,4.74,overcast clouds
251,Ahipara,NZ,2022-01-30 18:23:35,-35.1667,173.1667,60.84,91,100,7.87,overcast clouds
252,Guerrero Negro,MX,2022-01-30 18:23:37,27.9769,-114.0611,64.42,56,69,11.32,broken clouds
253,Port Keats,AU,2022-01-30 18:23:37,-14.25,129.55,80.85,80,58,21.09,light rain
254,Sijunjung,ID,2022-01-30 18:23:38,-0.6876,100.9537,72.77,97,98,0.83,overcast clouds
255,Yeniseysk,RU,2022-01-30 18:23:39,58.4497,92.1703,-9.47,100,95,2.55,overcast clouds
256,Tasiilaq,GL,2022-01-30 18:23:40,65.6145,-37.6368,8.76,35,6,31.97,clear sky
257,Terrace,CA,2022-01-30 18:23:41,54.5163,-128.6035,37.42,93,75,4.61,broken clouds
258,Zhezkazgan,KZ,2022-01-30 18:23:42,47.8043,67.7144,18.12,96,100,6.82,overcast clouds
259,Taksimo,RU,2022-01-30 18:23:43,56.3444,114.8794,-18.04,93,50,1.97,scattered clouds
260,Saldanha,ZA,2022-01-30 18:23:44,-33.0117,17.9442,77.05,87,62,18.03,broken clouds
261,Meulaboh,ID,2022-01-30 18:23:44,4.1363,96.1285,78.15,81,84,3.29,broken clouds
262,Noumea,NC,2022-01-30 18:23:45,-22.2763,166.4572,81.0,99,100,9.73,overcast clouds
263,Pevek,RU,2022-01-30 18:21:15,69.7008,170.3133,-11.34,95,100,3.36,overcast clouds
264,Sorong,ID,2022-01-30 18:23:46,-0.8833,131.25,81.18,77,100,8.97,moderate rain
265,Nouadhibou,MR,2022-01-30 18:23:47,20.931,-17.0347,67.98,68,96,14.97,overcast clouds
266,Iqaluit,CA,2022-01-30 18:23:48,63.7506,-68.5145,-11.47,70,75,6.91,broken clouds
267,Ponta Do Sol,PT,2022-01-30 18:23:00,32.6667,-17.1,67.01,41,0,7.63,clear sky
268,Chumikan,RU,2022-01-30 18:23:49,54.7183,135.315,-0.17,82,100,17.0,overcast clouds
269,Naze,JP,2022-01-30 18:23:50,28.3667,129.4833,52.81,69,97,18.9,overcast clouds
270,Namibe,AO,2022-01-30 18:23:51,-15.1961,12.1522,73.35,73,98,8.14,overcast clouds
271,Altay,CN,2022-01-30 18:23:51,47.8667,88.1167,3.61,54,38,7.47,scattered clouds
272,Ostrovnoy,RU,2022-01-30 18:23:52,68.0531,39.5131,2.64,97,91,8.1,overcast clouds
273,Owatonna,US,2022-01-30 18:23:53,44.0839,-93.226,20.71,73,40,5.75,scattered clouds
274,Gat,IL,2022-01-30 18:19:00,31.61,34.7642,53.4,100,6,3.44,clear sky
275,Iglesias,IT,2022-01-30 18:23:54,39.3114,8.535,52.79,89,6,10.67,clear sky
276,Pudem,RU,2022-01-30 18:19:12,58.3044,52.1675,7.21,98,93,5.39,overcast clouds
277,Sovetsk,RU,2022-01-30 18:23:55,55.0839,21.8785,32.04,90,100,29.62,light snow
278,Mehran,IR,2022-01-30 18:23:56,33.1222,46.1646,45.88,48,0,8.48,clear sky
279,Kalga,RU,2022-01-30 18:23:56,50.9251,118.898,-13.02,92,5,4.92,clear sky
280,Mayahi,NE,2022-01-30 18:23:58,13.9553,7.6712,72.48,10,28,16.37,scattered clouds
281,Mocuba,MZ,2022-01-30 18:23:58,-16.8392,36.9856,72.39,97,16,3.96,few clouds
282,Morelia,MX,2022-01-30 18:23:59,19.7008,-101.1844,70.74,33,0,2.15,clear sky
283,College,US,2022-01-30 18:24:00,64.8569,-147.8028,-25.35,71,75,0.0,broken clouds
284,Koslan,RU,2022-01-30 18:24:00,63.4564,48.8989,2.86,99,95,3.67,overcast clouds
285,Severo-Kurilsk,RU,2022-01-30 18:23:45,50.6789,156.125,26.37,92,100,14.63,light snow
286,Kostomuksha,RU,2022-01-30 18:24:01,64.571,30.5767,13.39,96,100,8.01,overcast clouds
287,Nome,US,2022-01-30 18:23:33,64.5011,-165.4064,-7.89,70,0,0.0,clear sky
288,Gummidipundi,IN,2022-01-30 18:24:03,13.4,80.15,78.98,82,59,5.55,broken clouds
289,Wuzhou,CN,2022-01-30 18:24:03,23.4833,111.3167,50.4,72,97,2.82,overcast clouds
290,Abalak,RU,2022-01-30 18:24:04,58.1286,68.5944,-1.97,100,100,4.05,overcast clouds
291,Bulolo,PG,2022-01-30 18:24:05,-7.2,146.65,70.02,92,100,3.09,overcast clouds
292,Palpa,PE,2022-01-30 18:24:06,-14.5336,-75.1856,86.4,41,93,9.35,overcast clouds
293,Qasigiannguit,GL,2022-01-30 18:24:07,68.8193,-51.1922,8.85,69,100,11.34,overcast clouds
294,Basco,PH,2022-01-30 18:24:07,20.4487,121.9702,70.84,77,83,34.16,broken clouds
295,Los Llanos De Aridane,ES,2022-01-30 18:24:08,28.6585,-17.9182,64.15,82,20,1.99,few clouds
296,Jocoro,SV,2022-01-30 18:24:09,13.6167,-88.0167,91.49,33,0,10.8,clear sky
297,Muisne,EC,2022-01-30 18:24:09,0.6,-80.0333,82.51,72,100,6.64,overcast clouds
298,Lasa,IT,2022-01-30 18:24:10,46.6166,10.7002,48.11,77,6,8.43,clear sky
299,Kudahuvadhoo,MV,2022-01-30 18:24:11,2.6708,72.8944,82.11,73,79,12.35,broken clouds
300,Susehri,TR,2022-01-30 18:24:12,40.1644,38.0867,25.47,96,100,3.51,light snow
301,Bredasdorp,ZA,2022-01-30 18:24:12,-34.5322,20.0403,72.28,83,20,12.66,few clouds
302,Acoyapa,NI,2022-01-30 18:24:13,11.9703,-85.1711,80.69,48,15,20.54,few clouds
303,Gold Coast,AU,2022-01-30 18:23:08,-28.0,153.4333,73.99,93,97,5.75,overcast clouds
304,Aljezur,PT,2022-01-30 18:24:14,37.3191,-8.8033,55.06,60,1,2.86,clear sky
305,Kloulklubed,PW,2022-01-30 18:24:13,7.0419,134.2556,75.7,68,98,9.73,overcast clouds
306,Isangel,VU,2022-01-30 18:24:16,-19.55,169.2667,77.41,94,100,9.8,overcast clouds
307,Boa Vista,BR,2022-01-30 18:21:24,2.8197,-60.6733,89.58,40,75,16.11,broken clouds
308,Vestmanna,FO,2022-01-30 18:24:17,62.1564,-7.1664,36.52,93,100,11.5,overcast clouds
309,Neumunster,DE,2022-01-30 18:24:18,54.0667,9.9833,42.28,67,17,7.0,few clouds
310,Corner Brook,CA,2022-01-30 18:24:18,48.9667,-57.9484,35.76,81,100,26.69,overcast clouds
311,Mecca,SA,2022-01-30 18:24:20,21.4267,39.8261,69.19,58,60,6.6,broken clouds
312,Lipany,SK,2022-01-30 18:24:20,49.1538,20.9638,39.42,80,92,19.6,light rain
313,Araouane,ML,2022-01-30 18:24:21,18.9048,-3.5265,80.83,12,17,10.63,few clouds
314,Cody,US,2022-01-30 18:19:27,44.5263,-109.0565,46.62,14,0,6.91,clear sky
315,Talnakh,RU,2022-01-30 18:24:13,69.4865,88.3972,-12.44,97,86,8.79,overcast clouds
316,Nanortalik,GL,2022-01-30 18:24:23,60.1432,-45.2371,18.1,67,100,10.74,light snow
317,Chapais,CA,2022-01-30 18:24:24,49.7834,-74.8492,1.18,82,99,9.6,overcast clouds
318,Dongsheng,CN,2022-01-30 18:24:25,39.8161,109.9776,9.37,45,4,18.86,clear sky
319,Sherlovaya Gora,RU,2022-01-30 18:24:25,50.5667,116.25,-22.34,100,59,4.0,broken clouds
320,Kabare,CD,2022-01-30 18:24:26,-2.4683,28.8242,63.03,91,97,2.21,overcast clouds
321,Coahuayana,MX,2022-01-30 18:24:27,18.7333,-103.6833,87.28,28,0,5.75,clear sky
322,Fria,GN,2022-01-30 18:24:27,10.4167,-13.5833,81.21,23,58,8.1,broken clouds
323,Basoko,CD,2022-01-30 18:24:28,1.2391,23.616,80.71,35,83,0.72,broken clouds
324,Saint Paul,US,2022-01-30 18:20:35,44.9444,-93.0933,21.43,69,40,3.44,scattered clouds
325,Kyrylivka,UA,2022-01-30 18:24:29,46.3759,35.3675,35.58,97,100,23.82,overcast clouds
326,Esperance,AU,2022-01-30 18:22:53,-33.8667,121.9,70.48,65,60,10.38,broken clouds
327,Puerto Escondido,MX,2022-01-30 18:24:30,15.85,-97.0667,83.23,74,0,9.22,clear sky
328,Paragominas,BR,2022-01-30 18:24:31,-2.9667,-47.4833,84.15,66,80,4.83,broken clouds
329,Bilma,NE,2022-01-30 18:24:32,18.6853,12.9164,64.58,15,1,13.65,clear sky
330,Shache,CN,2022-01-30 18:24:33,38.4167,77.2406,25.72,43,48,1.61,scattered clouds
331,Villa Carlos Paz,AR,2022-01-30 18:24:33,-31.4241,-64.4978,89.04,10,0,1.99,clear sky
332,Santa Rosa,PH,2022-01-30 18:24:34,14.3122,121.1114,79.09,83,11,10.47,few clouds
333,Hailar,CN,2022-01-30 18:24:35,49.2,119.7,-23.42,100,34,3.69,scattered clouds
334,Komsomolskiy,UZ,2022-01-30 18:24:35,40.4272,71.7189,33.22,86,100,6.91,mist
335,Horki,BY,2022-01-30 18:24:36,54.2861,30.9842,30.92,96,98,9.15,snow
336,Bagdarin,RU,2022-01-30 18:24:37,54.4333,113.6,-16.74,97,12,3.6,few clouds
337,Puerto Ayacucho,VE,2022-01-30 18:24:37,5.6639,-67.6236,91.18,22,95,9.66,overcast clouds
338,Barahona,DO,2022-01-30 18:24:38,18.2085,-71.1008,87.62,55,20,13.8,few clouds
339,Lebedinyy,RU,2022-01-30 18:24:39,58.5167,125.5167,-14.21,99,100,3.74,overcast clouds
340,Alta Floresta,BR,2022-01-30 18:24:40,-9.8756,-56.0861,84.02,70,40,6.91,scattered clouds
341,Mayakonda,IN,2022-01-30 18:24:40,14.2833,76.0833,73.85,46,16,4.81,few clouds
342,Gerash,IR,2022-01-30 18:24:41,27.6652,54.1371,53.74,47,0,5.91,clear sky
343,Serenje,ZM,2022-01-30 18:24:42,-13.2325,30.2352,60.6,99,99,3.36,overcast clouds
344,Port Hardy,CA,2022-01-30 18:24:42,50.6996,-127.4199,41.18,93,100,6.91,light rain
345,Yar-Sale,RU,2022-01-30 18:24:43,66.8333,70.8333,-1.68,96,100,7.92,overcast clouds
346,Yuanping,CN,2022-01-30 18:24:44,38.7153,112.7575,20.08,35,0,15.35,clear sky
347,Dzhebariki-Khaya,RU,2022-01-30 18:24:45,62.2167,135.8,-37.79,100,68,1.36,broken clouds
348,Ust-Kut,RU,2022-01-30 18:24:45,56.7938,105.7672,2.89,98,100,2.08,overcast clouds
349,Rairangpur,IN,2022-01-30 18:24:46,22.2676,86.1751,58.91,42,1,3.49,clear sky
350,Camana,PE,2022-01-30 18:24:47,-16.6228,-72.7111,74.1,64,50,9.24,scattered clouds
351,Leh,IN,2022-01-30 18:24:47,34.1667,77.5833,10.15,84,100,1.72,overcast clouds
352,Vanavara,RU,2022-01-30 18:24:48,60.34,102.2797,-16.55,100,99,1.66,overcast clouds
353,Savannah Bight,HN,2022-01-30 18:24:49,16.45,-85.85,75.99,65,100,18.19,overcast clouds
354,Cape Canaveral,US,2022-01-30 18:24:49,28.4058,-80.6048,57.09,49,0,12.66,clear sky
355,Olafsvik,IS,2022-01-30 18:24:50,64.8945,-23.7142,28.67,59,100,38.23,light snow
356,Harper,LR,2022-01-30 18:24:51,4.375,-7.7169,82.47,75,70,9.42,broken clouds
357,Searcy,US,2022-01-30 18:24:52,35.2506,-91.7363,60.8,25,0,10.36,clear sky
358,Pontes E Lacerda,BR,2022-01-30 18:24:52,-15.2261,-59.3353,77.86,91,96,6.17,light rain
359,Kavieng,PG,2022-01-30 18:24:53,-2.5744,150.7967,80.94,75,88,1.79,overcast clouds
360,Aban,RU,2022-01-30 18:24:30,56.67,96.06,-7.62,99,96,1.5,overcast clouds
361,Yulara,AU,2022-01-30 18:24:54,-25.2406,130.9889,73.24,100,100,13.8,moderate rain
362,Rabo De Peixe,PT,2022-01-30 18:24:55,37.8,-25.5833,59.27,92,40,13.8,scattered clouds
363,Hami,CN,2022-01-30 18:24:56,42.8,93.45,24.17,39,100,1.97,overcast clouds
364,Inskoy,RU,2022-01-30 18:24:56,54.4297,86.44,-5.08,95,46,3.71,scattered clouds
365,Mount Isa,AU,2022-01-30 18:24:57,-20.7333,139.5,74.97,100,75,9.22,broken clouds
366,Kohima,IN,2022-01-30 18:24:58,25.6667,94.1167,44.4,85,75,0.87,broken clouds
367,Teya,RU,2022-01-30 18:24:59,60.3778,92.6267,-6.27,100,97,3.09,overcast clouds
368,Mokhos,GR,2022-01-30 18:24:59,35.2634,25.4231,50.4,88,46,4.23,scattered clouds
369,Rosarito,MX,2022-01-30 18:20:55,32.3333,-117.0333,68.23,37,0,3.29,clear sky
370,Inzer,RU,2022-01-30 18:25:01,54.2167,57.5556,17.92,97,98,3.29,snow
371,Labe,GN,2022-01-30 18:25:01,11.3182,-12.2833,84.99,11,31,7.11,scattered clouds
372,Rocha,UY,2022-01-30 18:20:34,-34.4833,-54.3333,82.81,42,6,9.57,clear sky
373,Sechura,PE,2022-01-30 18:25:03,-5.5569,-80.8222,80.46,57,90,8.12,overcast clouds
374,Morondava,MG,2022-01-30 18:25:03,-20.2833,44.2833,83.39,73,7,16.51,clear sky
375,Mogocha,RU,2022-01-30 18:25:04,53.7333,119.7667,-8.48,93,89,3.96,overcast clouds
376,Fukue,JP,2022-01-30 18:25:05,32.6881,128.8419,44.87,56,9,20.8,clear sky
377,Kavaratti,IN,2022-01-30 18:25:06,10.5669,72.642,81.37,71,42,9.55,scattered clouds
378,Prestea,GH,2022-01-30 18:25:07,5.4327,-2.1428,85.53,49,62,8.81,broken clouds
379,Magadan,RU,2022-01-30 18:25:07,59.5667,150.8,7.83,79,100,10.85,overcast clouds
380,Zarubino,RU,2022-01-30 18:25:08,42.63,131.0922,16.38,67,3,10.94,clear sky
381,Walldurn,DE,2022-01-30 18:25:09,49.5833,9.3667,39.47,60,18,4.85,few clouds
382,Masuguru,TZ,2022-01-30 18:25:10,-11.3667,38.4167,73.85,94,76,3.31,broken clouds
383,Saint-Denis,FR,2022-01-30 18:25:10,48.9167,2.3333,47.14,73,100,1.99,overcast clouds
384,Vao,NC,2022-01-30 18:25:11,-22.6667,167.4833,79.18,87,99,10.36,overcast clouds
385,Buzdyak,RU,2022-01-30 18:25:13,54.5833,54.55,21.38,96,100,7.94,light snow
386,Beloha,MG,2022-01-30 18:25:13,-25.1667,45.05,74.57,68,88,15.77,overcast clouds
387,Marystown,CA,2022-01-30 18:23:03,47.1666,-55.1483,35.91,76,100,33.51,overcast clouds
388,Marzuq,YE,2022-01-30 18:25:14,14.4,46.4667,64.4,76,71,6.85,broken clouds
389,Napier,NZ,2022-01-30 18:25:15,-39.4833,176.9167,64.27,81,11,1.99,few clouds
390,Bubaque,GW,2022-01-30 18:25:16,11.2833,-15.8333,78.24,63,21,15.19,few clouds
391,Envira,BR,2022-01-30 18:25:17,-7.3,-70.2167,88.48,52,86,4.5,overcast clouds
392,Ambulu,ID,2022-01-30 18:25:17,-8.345,113.6058,76.82,90,100,2.59,overcast clouds
393,Muscat,OM,2022-01-30 18:25:18,23.6139,58.5922,71.62,64,1,5.55,clear sky
394,Xihe,CN,2022-01-30 18:25:19,31.6864,113.4659,38.39,76,100,2.1,moderate rain
395,Estevan,CA,2022-01-30 18:25:19,49.1334,-102.9842,28.74,93,0,5.46,clear sky
396,Egvekinot,RU,2022-01-30 18:25:20,66.3167,-179.1667,0.14,62,52,8.01,broken clouds
397,Longyearbyen,SJ,2022-01-30 18:25:21,78.2186,15.6401,8.44,66,0,24.16,clear sky
398,Guisa,CU,2022-01-30 18:25:22,20.255,-76.5386,64.71,74,100,5.46,overcast clouds
399,Balabac,PH,2022-01-30 18:25:22,7.9868,117.0645,79.45,79,9,3.31,clear sky
400,Atambua,ID,2022-01-30 18:25:23,-9.1061,124.8925,74.5,89,99,5.06,moderate rain
401,Goderich,CA,2022-01-30 18:25:24,43.7501,-81.7165,21.9,68,100,9.22,overcast clouds
402,Lavrentiya,RU,2022-01-30 18:25:24,65.5833,-171.0,-4.76,88,4,5.12,clear sky
403,Saint-Francois,FR,2022-01-30 18:25:25,46.4154,3.9054,42.67,86,100,2.3,overcast clouds
404,Mangrul Pir,IN,2022-01-30 18:25:26,20.3167,77.35,67.8,22,0,2.98,clear sky
405,Nanakuli,US,2022-01-30 18:25:26,21.3906,-158.1547,75.7,73,0,3.44,clear sky
406,Naryan-Mar,RU,2022-01-30 18:25:27,67.6713,53.087,12.31,92,100,13.56,overcast clouds
407,Dillon,US,2022-01-30 18:25:28,34.4166,-79.3712,50.25,27,6,14.14,clear sky
408,Bermejo,AR,2022-01-30 18:25:28,-32.8833,-68.8,89.51,40,20,8.05,few clouds
409,Choctaw,US,2022-01-30 18:25:29,35.4976,-97.2689,60.12,26,0,5.01,clear sky
410,Bac Lieu,VN,2022-01-30 18:25:30,9.285,105.7244,76.23,85,32,7.7,scattered clouds
411,Auki,SB,2022-01-30 18:25:31,-8.7676,160.7034,77.61,87,100,3.74,overcast clouds
412,Faya,SA,2022-01-30 18:25:31,18.3851,42.4509,55.51,80,10,5.5,clear sky
413,Qeshm,IR,2022-01-30 18:25:32,26.9581,56.2719,67.89,65,0,12.82,clear sky
414,Najran,SA,2022-01-30 18:25:33,17.4924,44.1277,65.05,25,9,3.91,clear sky
415,Kuching,MY,2022-01-30 18:24:21,1.55,110.3333,77.22,94,40,0.0,scattered clouds
416,Berlevag,NO,2022-01-30 18:25:34,70.8578,29.0864,30.2,78,97,21.39,light snow
417,Tiznit,MA,2022-01-30 18:21:22,29.5833,-9.5,66.52,20,82,19.82,broken clouds
418,North Myrtle Beach,US,2022-01-30 18:23:41,33.816,-78.68,49.03,42,0,12.66,clear sky
419,Kuytun,RU,2022-01-30 18:25:36,54.3419,101.5036,-6.2,98,100,3.02,overcast clouds
420,Udachnyy,RU,2022-01-30 18:25:37,66.4167,112.4,-29.24,100,36,2.66,scattered clouds
421,Ercis,TR,2022-01-30 18:25:38,39.0287,43.3586,26.2,92,99,4.05,overcast clouds
422,Pontianak,ID,2022-01-30 18:25:39,-0.0333,109.3333,75.18,100,100,1.14,mist
423,Tura,IN,2022-01-30 18:23:11,25.5198,90.2201,52.97,57,7,3.36,clear sky
424,Hay River,CA,2022-01-30 18:25:40,60.8156,-115.7999,-7.62,77,100,8.05,light snow
425,Pergamino,AR,2022-01-30 18:25:41,-33.89,-60.5736,94.24,19,0,8.03,clear sky
426,Sao Felix Do Xingu,BR,2022-01-30 18:25:42,-6.6447,-51.995,77.04,78,100,3.42,overcast clouds
427,Trincomalee,LK,2022-01-30 18:25:42,8.5711,81.2335,79.36,81,28,12.21,scattered clouds
428,Guaymas,MX,2022-01-30 18:25:43,27.9333,-110.9,70.97,25,40,0.0,scattered clouds
429,Chipinge,ZW,2022-01-30 18:25:44,-20.1883,32.6236,63.72,86,97,4.79,overcast clouds
430,Anito,PH,2022-01-30 18:25:45,12.4497,125.2886,76.39,91,34,2.55,scattered clouds
431,Richards Bay,ZA,2022-01-30 18:23:01,-28.783,32.0377,72.93,80,50,6.91,scattered clouds
432,Turukhansk,RU,2022-01-30 18:25:46,65.8167,87.9833,0.99,95,100,8.63,overcast clouds
433,Manggar,ID,2022-01-30 18:25:47,-2.8833,108.2667,78.66,80,98,6.11,overcast clouds
434,Kholtoson,RU,2022-01-30 18:25:47,50.2981,103.3097,-11.36,99,25,3.58,scattered clouds
435,Taoudenni,ML,2022-01-30 18:25:48,22.6783,-3.9836,79.9,13,91,14.36,overcast clouds
436,Honiara,SB,2022-01-30 18:25:49,-9.4333,159.95,77.68,86,100,1.23,moderate rain
437,Pangkalanbuun,ID,2022-01-30 18:25:49,-2.6833,111.6167,74.52,90,100,1.99,overcast clouds
438,Alim,PH,2022-01-30 18:25:50,9.5649,122.4876,78.15,79,77,2.77,broken clouds
439,Puerto Asis,CO,2022-01-30 18:25:51,0.5133,-76.5007,88.36,45,100,3.67,overcast clouds
440,Jatai,BR,2022-01-30 18:25:51,-17.8814,-51.7144,68.27,96,100,9.73,overcast clouds
441,Sinnamary,GF,2022-01-30 18:25:52,5.3833,-52.95,80.6,75,58,10.04,broken clouds
442,Luau,AO,2022-01-30 18:25:53,-10.7073,22.2247,66.04,94,97,3.36,light rain
443,Assiniboia,CA,2022-01-30 18:25:53,49.6334,-105.9845,37.31,69,52,16.11,broken clouds
444,Ust-Maya,RU,2022-01-30 18:25:54,60.4167,134.5333,-32.89,100,87,1.28,overcast clouds
445,Santa Maria,BR,2022-01-30 18:25:55,-29.6842,-53.8069,83.5,61,20,9.22,few clouds
446,Qandala,SO,2022-01-30 18:25:56,11.472,49.8728,75.33,75,76,7.9,broken clouds
447,Lima,PE,2022-01-30 18:25:57,-12.0432,-77.0282,73.9,76,40,1.99,scattered clouds
448,Maraa,BR,2022-01-30 18:25:58,-1.8333,-65.3667,85.71,64,100,4.21,overcast clouds
449,Koumac,NC,2022-01-30 18:25:58,-20.5667,164.2833,77.86,84,92,3.91,overcast clouds
450,San Rafael,AR,2022-01-30 18:25:59,-34.6177,-68.3301,85.57,27,0,10.85,clear sky
451,Vallenar,CL,2022-01-30 18:26:00,-28.5708,-70.7581,82.26,31,0,11.25,clear sky
452,Jalu,LY,2022-01-30 18:25:48,29.0331,21.5482,56.17,55,87,17.43,overcast clouds
453,Noshiro,JP,2022-01-30 18:26:01,40.2039,140.0242,26.64,71,100,20.58,light snow
454,Kulhudhuffushi,MV,2022-01-30 18:26:02,6.6221,73.07,80.91,77,32,10.47,scattered clouds
455,Verkhoyansk,RU,2022-01-30 18:26:03,67.5447,133.385,-33.34,100,93,1.25,overcast clouds
456,Bhatkal,IN,2022-01-30 18:26:04,13.9667,74.5667,76.84,66,6,6.08,clear sky
457,Zlobin,HR,2022-01-30 18:26:04,45.2924,14.6541,37.62,79,0,3.44,clear sky
458,Matara,LK,2022-01-30 18:26:05,5.9485,80.5353,76.95,91,34,7.27,scattered clouds
459,Vanimo,PG,2022-01-30 18:26:06,-2.6741,141.3028,77.09,87,99,9.84,overcast clouds
460,Luanda,AO,2022-01-30 18:22:25,-8.8368,13.2343,79.32,82,98,11.97,overcast clouds
461,Labuhan,ID,2022-01-30 18:25:24,-6.8844,112.2051,77.83,88,100,5.59,overcast clouds
462,Pangnirtung,CA,2022-01-30 18:26:07,66.1451,-65.7125,-16.6,63,75,4.61,broken clouds
463,Depok,ID,2022-01-30 18:26:08,-6.4,106.8186,79.02,81,100,2.66,overcast clouds
464,Vila Franca Do Campo,PT,2022-01-30 18:26:09,37.7167,-25.4333,59.2,79,80,14.54,broken clouds
465,Safford,US,2022-01-30 18:26:10,32.834,-109.7076,60.51,35,40,4.61,scattered clouds
466,Blackwater,AU,2022-01-30 18:25:02,-23.5833,148.8833,72.63,91,35,7.4,scattered clouds
467,Kinkala,CG,2022-01-30 18:26:11,-4.3614,14.7644,80.91,91,100,4.45,light rain
468,Odweyne,SO,2022-01-30 18:26:12,9.4092,45.064,62.42,60,63,8.7,broken clouds
469,Wanning,CN,2022-01-30 18:26:12,18.8003,110.3967,68.97,90,99,10.56,overcast clouds
470,Dhidhdhoo,MV,2022-01-30 18:26:13,6.8833,73.1,81.05,76,11,8.84,few clouds
471,Okhotsk,RU,2022-01-30 18:26:14,59.3833,143.3,15.28,74,100,19.46,overcast clouds
472,Caraquet,CA,2022-01-30 18:26:15,47.7941,-64.9386,14.58,86,87,21.7,overcast clouds
473,Chabua,IN,2022-01-30 18:26:15,27.4825,95.1736,54.84,64,9,2.68,clear sky
474,Havelock,US,2022-01-30 18:26:16,34.8791,-76.9013,43.03,34,4,7.0,clear sky
475,Port-Gentil,GA,2022-01-30 18:24:05,-0.7193,8.7815,82.36,83,40,8.05,scattered clouds
476,Matagami,CA,2022-01-30 18:26:18,49.7502,-77.6328,-2.09,71,100,11.5,haze
477,Praia,CV,2022-01-30 18:26:19,14.9215,-23.5087,70.34,68,100,31.07,overcast clouds
478,Kitui,KE,2022-01-30 18:26:20,-1.367,38.0106,68.74,62,84,5.06,broken clouds
479,Calbuco,CL,2022-01-30 18:26:21,-41.768,-73.1273,56.97,55,52,7.72,broken clouds
480,Jennings,US,2022-01-30 18:26:21,38.7192,-90.2604,39.15,58,20,3.0,heavy snow
481,Kanashevo,RU,2022-01-30 18:26:22,55.2169,62.0634,0.16,97,100,4.74,overcast clouds
482,Dehui,CN,2022-01-30 18:26:23,44.5333,125.7,-3.69,97,5,0.98,clear sky
483,Fortuna,US,2022-01-30 18:26:23,40.5982,-124.1573,51.66,95,100,9.22,overcast clouds
484,Qaqortoq,GL,2022-01-30 18:24:06,60.7167,-46.0333,12.7,65,100,8.68,light snow
485,Pringsewu,ID,2022-01-30 18:26:25,-5.3582,104.9744,74.88,96,100,2.26,overcast clouds
486,Agapovka,RU,2022-01-30 18:26:25,53.2973,59.1348,16.81,96,80,5.28,broken clouds
487,Aripuana,BR,2022-01-30 18:23:57,-9.1667,-60.6333,75.43,97,100,3.89,light rain
488,Riachao Do Jacuipe,BR,2022-01-30 18:26:26,-11.8069,-39.3856,91.29,38,57,5.5,broken clouds
489,Pacific Grove,US,2022-01-30 18:24:06,36.6177,-121.9166,62.8,61,0,1.01,clear sky
490,Mastic Beach,US,2022-01-30 18:26:28,40.7668,-72.8521,26.51,51,0,3.0,clear sky
491,Borisoglebskiy,RU,2022-01-30 18:26:28,57.2586,39.1508,24.44,94,100,11.41,overcast clouds
492,Mporokoso,ZM,2022-01-30 18:26:29,-9.3727,30.125,61.12,98,100,0.76,overcast clouds
493,Nuristan,AF,2022-01-30 18:26:30,35.3,70.8333,6.8,73,70,9.6,broken clouds
494,Turayf,SA,2022-01-30 18:26:31,31.6725,38.6637,46.65,49,0,16.11,clear sky
495,Girona,ES,2022-01-30 18:22:15,41.9831,2.8249,59.11,52,0,1.01,clear sky
496,Nkayi,CG,2022-01-30 18:26:32,-4.1841,13.2884,74.55,92,100,3.85,moderate rain
497,Kuloy,RU,2022-01-30 18:26:32,61.0305,42.4925,8.11,96,90,6.31,overcast clouds
498,Hovd,MN,2022-01-30 18:26:33,48.0056,91.6419,-12.84,81,19,2.17,few clouds
499,Bathsheba,BB,2022-01-30 18:23:00,13.2167,-59.5167,84.81,65,40,18.41,scattered clouds
500,Karaman,TR,2022-01-30 18:26:34,37.0833,33.25,30.96,94,80,13.96,broken clouds
501,Peniche,PT,2022-01-30 18:26:35,39.3558,-9.3811,60.1,53,72,7.11,broken clouds
502,Kamaishi,JP,2022-01-30 18:22:52,39.2667,141.8833,24.89,61,44,10.22,scattered clouds
503,Sanchor,IN,2022-01-30 18:26:36,24.7553,71.7722,63.91,61,0,7.87,clear sky
504,La Libertad,EC,2022-01-30 18:26:37,-2.2333,-80.9,83.86,61,0,8.05,light rain
505,Bayir,TR,2022-01-30 18:26:38,37.2687,28.2167,45.12,87,87,1.07,overcast clouds
506,Nador,MA,2022-01-30 18:26:38,35.174,-2.9287,57.45,72,0,2.3,clear sky
507,Port Augusta,AU,2022-01-30 18:26:39,-32.5,137.7667,78.71,57,74,7.56,broken clouds
508,Semey,KZ,2022-01-30 18:26:40,50.4111,80.2275,15.58,89,100,12.08,overcast clouds
509,Cidreira,BR,2022-01-30 18:26:36,-30.1811,-50.2056,76.84,57,7,16.49,clear sky
510,Paranga,RU,2022-01-30 18:26:41,56.7039,49.4047,5.81,100,90,3.67,overcast clouds
511,Xique-Xique,BR,2022-01-30 18:26:42,-10.8218,-42.7263,84.92,53,40,6.96,scattered clouds
512,Manjacaze,MZ,2022-01-30 18:26:43,-24.7117,33.8828,73.96,79,71,7.81,broken clouds
513,Tursunzoda,TJ,2022-01-30 18:25:14,38.5144,68.2333,43.68,66,87,2.48,overcast clouds
514,Mayskiy,RU,2022-01-30 18:26:44,47.6931,40.1025,33.21,93,99,13.47,overcast clouds
515,Fort Dodge,US,2022-01-30 18:21:53,42.4975,-94.168,20.44,73,100,6.91,overcast clouds
516,Hamilton,US,2022-01-30 18:23:26,39.1834,-84.5333,39.07,56,0,1.99,clear sky
517,Gizo,SB,2022-01-30 18:26:46,-8.103,156.8419,81.41,79,98,8.72,moderate rain
518,Am Timan,TD,2022-01-30 18:26:47,11.0297,20.2827,80.33,15,8,3.51,clear sky
519,North Bend,US,2022-01-30 18:26:47,43.4065,-124.2243,49.06,100,100,9.22,overcast clouds
520,Kutum,SD,2022-01-30 18:26:48,14.2,24.6667,61.97,14,1,10.8,clear sky
521,Mackay,AU,2022-01-30 18:26:49,-21.15,149.2,78.78,89,100,11.5,shower rain
522,Moron,AR,2022-01-30 18:26:49,-34.6534,-58.6198,89.02,50,0,11.99,clear sky
523,Chicama,PE,2022-01-30 18:26:50,-7.8447,-79.1469,68.54,58,99,11.1,overcast clouds
524,Farafangana,MG,2022-01-30 18:26:51,-22.8167,47.8333,75.65,77,0,6.08,clear sky
525,Tammisaari,FI,2022-01-30 18:26:52,59.9736,23.4339,26.91,95,100,17.69,light snow
526,Coquimbo,CL,2022-01-30 18:26:53,-29.9533,-71.3436,68.07,71,30,9.57,scattered clouds
527,Cam Ranh,VN,2022-01-30 18:26:53,11.9214,109.1591,73.36,88,20,2.3,few clouds
528,Mabaruma,GY,2022-01-30 18:26:54,8.2,-59.7833,86.0,70,40,13.8,scattered clouds
529,Chapleau,CA,2022-01-30 18:26:55,47.8405,-83.4034,6.89,66,75,2.3,broken clouds
530,Shenxian,CN,2022-01-30 18:26:55,36.2411,115.6672,36.1,30,29,10.51,scattered clouds
531,Ligayan,PH,2022-01-30 18:26:56,4.6533,119.4706,81.27,75,65,6.06,broken clouds
532,Jiazi,CN,2022-01-30 18:26:57,22.8779,116.067,57.92,70,62,19.35,broken clouds
533,Dunedin,NZ,2022-01-30 18:26:58,-45.8742,170.5036,54.81,90,32,4.59,scattered clouds
534,Monrovia,LR,2022-01-30 18:26:58,6.3005,-10.7969,85.77,75,29,11.74,scattered clouds
535,Svay Rieng,KH,2022-01-30 18:26:59,11.0879,105.7993,76.91,79,83,9.69,broken clouds
536,Aranda De Duero,ES,2022-01-30 18:27:00,41.6704,-3.6892,44.64,36,0,4.16,clear sky
537,Camacha,PT,2022-01-30 18:22:59,33.0833,-16.3333,63.54,82,40,16.11,scattered clouds
538,Cabo Rojo,PR,2022-01-30 18:27:01,18.0866,-67.1457,84.88,69,1,4.0,clear sky
539,Tarime,TZ,2022-01-30 18:27:02,-1.35,34.3667,66.63,75,83,2.19,broken clouds
540,Kitimat,CA,2022-01-30 18:26:32,54.0524,-128.6534,37.9,57,100,5.44,overcast clouds
541,Kropotkin,RU,2022-01-30 18:27:03,45.4375,40.5756,33.82,96,95,7.18,snow
542,Sabha,LY,2022-01-30 18:27:04,27.0377,14.4283,50.68,42,2,11.14,clear sky
543,Muncar,ID,2022-01-30 18:27:04,-8.4333,114.3333,76.69,89,100,4.92,overcast clouds
544,Panguipulli,CL,2022-01-30 18:27:05,-39.6333,-72.3333,67.41,36,61,5.12,broken clouds
545,Tabuk,PH,2022-01-30 18:27:06,17.4189,121.4443,69.8,90,98,7.29,overcast clouds
546,Langsa,ID,2022-01-30 18:27:06,4.4683,97.9683,73.18,96,46,2.66,scattered clouds
547,Temerloh,MY,2022-01-30 18:27:07,3.4483,102.4176,72.21,93,98,0.83,overcast clouds
548,Lazaro Cardenas,MX,2022-01-30 18:27:08,17.9583,-102.2,82.74,52,3,6.58,clear sky
549,San Pedro De Macoris,DO,2022-01-30 18:27:08,18.4616,-69.2972,85.37,47,3,4.99,clear sky
550,Kholm,RU,2022-01-30 18:27:09,59.2667,32.85,25.12,92,100,8.9,overcast clouds
551,Anadyr,RU,2022-01-30 18:22:57,64.75,177.4833,-19.52,82,75,2.24,mist
552,Zhigansk,RU,2022-01-30 18:27:10,66.7697,123.3711,-33.05,100,97,2.42,overcast clouds
553,Paramonga,PE,2022-01-30 18:27:11,-10.6667,-77.8333,74.35,74,100,10.04,overcast clouds
554,Mareeba,AU,2022-01-30 18:27:11,-17.0,145.4333,72.45,93,72,1.88,broken clouds
555,Avera,US,2022-01-30 18:27:13,33.194,-82.5271,56.37,32,0,16.02,clear sky
556,Shanghai,CN,2022-01-30 18:23:01,31.2222,121.4581,37.92,62,0,3.0,clear sky
557,Toppenish,US,2022-01-30 18:27:14,46.3774,-120.3087,32.34,87,100,0.87,overcast clouds
558,Tatawin,TN,2022-01-30 18:27:14,32.9297,10.4518,56.28,35,0,8.86,clear sky
559,Sambava,MG,2022-01-30 18:25:20,-14.2667,50.1667,79.16,86,86,13.69,light rain
560,Neepawa,CA,2022-01-30 18:27:16,50.2289,-99.4664,14.4,93,99,9.15,overcast clouds
561,Yulin,CN,2022-01-30 18:27:16,22.6333,110.15,53.53,78,92,6.98,light rain
562,Melfi,IT,2022-01-30 18:27:17,40.9965,15.6514,42.49,82,4,6.93,clear sky
563,Aswan,EG,2022-01-30 18:24:52,24.0934,32.907,58.95,31,84,9.1,broken clouds
564,Nicolas Bravo,MX,2022-01-30 18:27:18,18.45,-88.9167,76.08,42,2,3.0,clear sky
565,Mandalgovi,MN,2022-01-30 18:27:19,45.7625,106.2708,-0.99,80,7,12.08,clear sky
566,Portland,US,2022-01-30 18:22:57,45.5234,-122.6762,47.28,74,75,5.99,broken clouds
567,Saint-Pierre,RE,2022-01-30 18:27:20,-21.3393,55.4781,80.28,78,28,16.11,scattered clouds
568,Roebourne,AU,2022-01-30 18:27:21,-20.7833,117.1333,86.0,53,47,20.27,scattered clouds
569,Nelson Bay,AU,2022-01-30 18:27:22,-32.7167,152.15,72.0,95,42,1.57,scattered clouds
570,Marondera,ZW,2022-01-30 18:27:22,-18.1853,31.5519,62.1,80,95,4.38,overcast clouds
571,Cozumel,MX,2022-01-30 18:27:23,20.5083,-86.9458,73.94,58,40,4.0,scattered clouds
572,Clonakilty,IE,2022-01-30 18:23:13,51.6231,-8.8706,47.41,78,64,19.06,broken clouds
573,Senneterre,CA,2022-01-30 18:27:25,48.3835,-77.2328,8.82,86,100,7.47,light snow
574,Palmer,US,2022-01-30 18:24:53,42.1584,-72.3287,23.77,36,0,4.0,clear sky
575,Chekalin,RU,2022-01-30 18:27:26,54.0969,36.245,26.65,94,100,11.77,snow
576,Gamba,GA,2022-01-30 18:27:27,-2.65,10.0,78.57,82,98,4.65,overcast clouds
577,Karpogory,RU,2022-01-30 18:24:50,64.0019,44.4451,7.43,96,100,5.55,overcast clouds
578,Nuuk,GL,2022-01-30 18:27:28,64.1835,-51.7216,14.61,85,75,5.75,light shower snow
579,Jawhar,SO,2022-01-30 18:27:29,2.7809,45.5005,75.58,72,76,17.9,broken clouds
580,Nizwa,OM,2022-01-30 18:27:29,22.9333,57.5333,71.47,33,0,0.27,clear sky
581,Chabahar,IR,2022-01-30 18:27:30,25.2919,60.643,71.92,77,0,14.16,clear sky
582,Cockburn Town,TC,2022-01-30 18:27:31,21.4612,-71.1419,75.16,69,75,13.8,broken clouds
583,Nichinan,JP,2022-01-30 18:27:31,31.6,131.3667,39.76,74,16,8.41,few clouds
584,Synya,RU,2022-01-30 18:27:32,65.3718,58.0387,5.0,98,100,4.21,overcast clouds
585,Ous,RU,2022-01-30 18:27:32,60.9058,61.5186,-4.43,100,100,1.99,overcast clouds
586,Tezu,IN,2022-01-30 18:27:33,27.9167,96.1667,53.26,53,61,3.8,broken clouds
587,Guangyuan,CN,2022-01-30 18:27:34,32.442,105.823,38.95,70,100,5.01,overcast clouds
588,Quang Ngai,VN,2022-01-30 18:27:34,15.1167,108.8,72.03,94,96,4.29,overcast clouds
589,Sobolevo,RU,2022-01-30 18:27:35,54.4299,31.8996,31.57,94,100,8.86,overcast clouds
590,Tsumeb,NA,2022-01-30 18:27:36,-19.2333,17.7167,70.86,81,98,5.21,moderate rain
591,Dolores,AR,2022-01-30 18:27:37,-36.3132,-57.6792,84.85,42,20,12.75,moderate rain
592,Houma,US,2022-01-30 18:27:37,29.5958,-90.7195,64.99,47,0,11.5,clear sky
593,Touros,BR,2022-01-30 18:24:38,-5.1989,-35.4608,86.9,66,33,15.41,scattered clouds
594,Sarangani,PH,2022-01-30 18:25:22,5.4033,125.4636,80.94,75,73,7.99,broken clouds
595,Beaverlodge,CA,2022-01-30 18:27:40,55.2166,-119.4361,20.55,89,14,3.2,few clouds
596,Pak Phanang,TH,2022-01-30 18:27:40,8.3511,100.202,78.01,80,17,5.93,few clouds
597,Sterling,US,2022-01-30 18:27:41,39.0062,-77.4286,31.1,49,100,1.01,overcast clouds
598,Poya,NC,2022-01-30 18:27:42,-21.35,165.15,77.02,90,100,4.79,overcast clouds
599,Kieta,PG,2022-01-30 18:27:43,-6.2167,155.6333,79.21,86,100,5.91,light rain
600,Ubatuba,BR,2022-01-30 18:27:43,-23.4339,-45.0711,80.13,92,100,1.12,overcast clouds
601,Madang,PG,2022-01-30 18:27:44,-5.2246,145.7966,74.89,96,100,6.31,overcast clouds
602,Baherden,TM,2022-01-30 18:27:45,38.4362,57.4316,44.78,57,0,8.37,clear sky
603,Erzin,TR,2022-01-30 18:27:04,36.9559,36.2,45.12,80,40,6.76,light rain
604,Hornepayne,CA,2022-01-30 18:27:46,49.2138,-84.7705,2.37,83,100,5.08,overcast clouds
605,Manutuke,NZ,2022-01-30 18:27:46,-38.6833,177.9167,60.37,89,25,2.77,scattered clouds
606,Tias,ES,2022-01-30 18:27:47,28.9611,-13.645,64.15,55,0,6.91,haze
607,Ayorou,NE,2022-01-30 18:27:48,14.7308,0.9174,79.86,10,19,11.81,few clouds
608,Yerbogachen,RU,2022-01-30 18:24:55,61.2767,108.0108,-9.42,100,98,2.84,overcast clouds
609,Gulbene,LV,2022-01-30 18:27:49,57.1777,26.7529,30.4,99,100,2.75,overcast clouds
610,Coihaique,CL,2022-01-30 18:27:49,-45.5752,-72.0662,57.81,44,40,8.05,scattered clouds
611,Boguchar,RU,2022-01-30 18:27:50,49.9358,40.545,29.44,91,100,16.11,light snow
612,Libreville,GA,2022-01-30 18:23:23,0.3925,9.4537,82.42,83,40,9.22,scattered clouds
613,Quimper,FR,2022-01-30 18:27:51,48.0,-4.1,50.61,93,100,5.75,overcast clouds
614,Shalakusha,RU,2022-01-30 18:27:52,62.2247,40.2539,11.98,94,100,6.85,overcast clouds
615,Menongue,AO,2022-01-30 18:27:52,-14.6585,17.691,63.84,76,100,9.28,overcast clouds
616,Sumenep,ID,2022-01-30 18:27:53,-7.0167,113.8667,77.43,88,100,6.98,overcast clouds
617,Maceio,BR,2022-01-30 18:24:07,-9.6658,-35.7353,90.84,55,40,17.27,scattered clouds
618,Serpa,PT,2022-01-30 18:27:54,37.9458,-7.5975,58.96,42,33,4.92,scattered clouds
619,Grude,BA,2022-01-30 18:27:55,43.3642,17.4206,36.73,76,1,4.85,clear sky
620,Dalbandin,PK,2022-01-30 18:27:55,28.8947,64.4101,59.43,36,0,7.74,clear sky
621,Nechi,CO,2022-01-30 18:27:57,8.0942,-74.7757,86.4,54,69,4.23,broken clouds
622,Great Falls,US,2022-01-30 18:27:57,47.5002,-111.3008,47.41,22,0,18.01,clear sky
623,San Carlos De Bariloche,AR,2022-01-30 18:27:59,-41.1456,-71.3082,62.24,21,20,23.02,few clouds
624,Champerico,GT,2022-01-30 18:27:59,14.3,-91.9167,91.94,60,5,7.54,clear sky
625,Puerto Guzman,CO,2022-01-30 18:28:00,0.9703,-76.5858,88.66,50,100,3.8,overcast clouds
626,Lipin Bor,RU,2022-01-30 18:28:01,60.2622,37.9763,16.81,93,100,11.83,overcast clouds
627,Sept-Iles,CA,2022-01-30 18:27:49,50.2001,-66.3821,9.12,64,75,10.0,broken clouds
628,Zyryanovsk,KZ,2022-01-30 18:28:03,49.7386,84.2719,3.02,92,100,1.36,overcast clouds
629,Arzgir,RU,2022-01-30 18:28:03,45.3728,44.2206,31.98,88,96,7.96,overcast clouds
630,Beringovskiy,RU,2022-01-30 18:26:30,63.05,179.3167,-13.67,99,70,7.34,broken clouds
631,Gelibolu,TR,2022-01-30 18:28:04,40.4103,26.6708,46.22,64,54,10.16,broken clouds
632,Plettenberg Bay,ZA,2022-01-30 18:28:05,-34.0527,23.3716,71.26,91,71,7.16,broken clouds
633,Moyo,UG,2022-01-30 18:28:06,3.6609,31.7247,81.93,21,64,9.06,broken clouds
634,Tuy Hoa,VN,2022-01-30 18:28:07,13.0833,109.3,73.33,90,52,5.1,broken clouds
635,Kharp,RU,2022-01-30 18:28:07,66.8014,65.8081,-7.29,98,99,1.48,overcast clouds
636,Griffith,US,2022-01-30 18:28:08,41.5284,-87.4237,31.05,71,40,4.0,scattered clouds
637,Soverato,IT,2022-01-30 18:28:09,38.685,16.5499,53.55,79,7,14.36,clear sky
638,Paamiut,GL,2022-01-30 18:24:29,61.994,-49.6678,10.04,69,100,11.1,overcast clouds
639,San Salvo,IT,2022-01-30 18:28:11,42.0433,14.7272,44.91,57,7,4.27,clear sky
640,Pandharpur,IN,2022-01-30 18:28:11,17.6667,75.3333,73.72,23,0,4.59,clear sky
641,Venado Tuerto,AR,2022-01-30 18:28:12,-33.7456,-61.9688,89.78,22,0,8.21,clear sky
642,Yaan,NG,2022-01-30 18:28:13,7.3833,8.5667,86.14,11,84,7.29,broken clouds
643,Atbasar,KZ,2022-01-30 18:28:13,51.8,68.3333,4.14,96,82,10.07,broken clouds
644,Sao Jose Da Laje,BR,2022-01-30 18:28:14,-9.0097,-36.0583,87.76,47,99,14.43,overcast clouds
645,Uyemskiy,RU,2022-01-30 18:28:15,64.4743,40.8524,14.05,92,75,6.71,light snow
646,Vostok,RU,2022-01-30 18:28:15,46.4856,135.8833,-21.5,99,71,3.8,broken clouds
647,Sao Miguel Do Araguaia,BR,2022-01-30 18:28:16,-13.275,-50.1628,75.99,86,100,7.65,overcast clouds
648,Tavda,RU,2022-01-30 18:28:17,58.0425,65.2726,7.92,98,100,0.83,overcast clouds
649,Towada,JP,2022-01-30 18:28:18,40.6127,141.2067,21.2,76,44,10.27,scattered clouds
650,Santa Cruz,BO,2022-01-30 18:26:30,-17.8,-63.1667,96.26,34,40,8.05,scattered clouds
651,Shimoda,JP,2022-01-30 18:23:59,34.6667,138.95,37.11,64,99,12.26,overcast clouds
652,Constitucion,CL,2022-01-30 18:26:38,-35.3333,-72.4167,70.86,58,2,18.28,clear sky
653,Trapani,IT,2022-01-30 18:28:20,37.8333,12.6667,55.35,94,75,9.22,broken clouds
654,Zelenoborskiy,RU,2022-01-30 18:28:20,66.845,32.3622,-5.33,99,61,2.71,broken clouds
655,Rossosh,RU,2022-01-30 18:28:21,51.1209,38.5116,28.81,96,100,15.46,snow
656,La Ronge,CA,2022-01-30 18:28:22,55.1001,-105.2842,12.45,85,100,9.22,overcast clouds
657,Lata,PT,2022-01-30 18:28:22,40.1629,-8.3327,57.61,49,88,2.21,overcast clouds
658,Diego De Almagro,CL,2022-01-30 18:28:23,-26.3667,-70.05,79.54,21,0,14.58,clear sky
659,Moissala,TD,2022-01-30 18:28:24,8.3404,17.7663,79.54,15,70,4.76,broken clouds
660,Sorland,NO,2022-01-30 18:28:25,67.667,12.6934,33.66,50,100,17.69,overcast clouds
661,Zainsk,RU,2022-01-30 18:28:25,55.3195,52.0694,18.59,97,100,3.67,light snow
662,Murchison,NZ,2022-01-30 18:28:26,-41.8,172.3333,53.53,95,41,2.21,scattered clouds
663,Quatre Cocos,MU,2022-01-30 18:25:44,-20.2078,57.7625,80.71,84,55,17.96,broken clouds
664,Osoyoos,CA,2022-01-30 18:28:27,49.0331,-119.4524,30.96,78,100,8.05,overcast clouds
665,Roura,GF,2022-01-30 18:28:28,4.7263,-52.3274,82.31,78,100,11.5,light rain
666,Flinders,AU,2022-01-30 18:26:49,-34.5833,150.8552,69.21,93,73,3.62,broken clouds
667,Dolinsk,RU,2022-01-30 18:24:04,47.35,142.8,-22.14,99,46,3.94,scattered clouds
668,Pochutla,MX,2022-01-30 18:28:30,15.7432,-96.4661,87.62,34,0,7.18,clear sky
669,Strzelce Opolskie,PL,2022-01-30 18:28:30,50.5107,18.3006,39.76,70,100,26.08,overcast clouds
670,Houston,US,2022-01-30 18:23:35,29.7633,-95.3633,68.09,44,0,5.01,clear sky
671,Sale,MA,2022-01-30 18:28:32,34.0389,-6.8166,67.64,59,13,0.0,haze
672,Bartica,GY,2022-01-30 18:28:32,6.4,-58.6167,80.92,68,76,4.14,broken clouds
673,Bereznik,RU,2022-01-30 18:28:33,62.8551,42.7072,7.72,96,99,5.79,overcast clouds
674,Chieti,IT,2022-01-30 18:28:34,42.3609,14.138,50.38,69,9,1.14,clear sky
675,Urengoy,RU,2022-01-30 18:28:35,65.9667,78.3667,-10.17,100,91,7.0,overcast clouds
676,Baruun-Urt,MN,2022-01-30 18:24:12,46.6806,113.2792,-7.38,96,77,5.46,broken clouds
677,Oriximina,BR,2022-01-30 18:28:36,-1.7656,-55.8661,80.73,76,100,3.15,light rain
678,Marang,MY,2022-01-30 18:28:37,5.2056,103.2059,75.11,82,71,0.87,broken clouds
679,Dasoguz,TM,2022-01-30 18:28:38,41.8363,59.9666,28.35,93,53,9.22,broken clouds
680,Nouakchott,MR,2022-01-30 18:28:38,18.0858,-15.9785,71.53,63,98,17.85,overcast clouds
681,Vagur,FO,2022-01-30 18:28:39,61.4732,-6.8119,37.69,94,100,11.27,overcast clouds
682,Jhol,PK,2022-01-30 18:28:40,25.9551,68.8882,60.87,60,0,6.22,clear sky
683,Freeport,US,2022-01-30 18:26:20,40.6576,-73.5832,27.37,54,0,7.0,clear sky
684,Jinsha,CN,2022-01-30 18:28:41,32.0898,121.0735,34.02,68,0,1.74,clear sky
685,Kyra,RU,2022-01-30 18:28:42,49.5776,111.9753,-10.48,94,8,5.12,clear sky
686,Qostanay,KZ,2022-01-30 18:28:42,53.1667,63.5833,5.16,97,93,7.27,overcast clouds
687,Kenai,US,2022-01-30 18:28:43,60.5544,-151.2583,21.25,86,100,4.61,overcast clouds
688,Baykit,RU,2022-01-30 18:28:44,61.67,96.37,-11.31,100,94,1.14,overcast clouds
689,Khartoum,SD,2022-01-30 18:24:48,15.5518,32.5324,72.01,19,2,1.99,clear sky
690,Ulladulla,AU,2022-01-30 18:28:45,-35.35,150.4667,68.9,91,64,2.39,broken clouds
691,Orange Cove,US,2022-01-30 18:28:46,36.6244,-119.3137,62.85,40,0,3.78,clear sky
692,Eyl,SO,2022-01-30 18:24:12,7.9803,49.8164,75.54,75,100,16.44,overcast clouds
693,Biak,ID,2022-01-30 18:28:47,-0.9131,122.8766,76.32,80,88,5.59,overcast clouds
694,Yumen,CN,2022-01-30 18:28:48,40.2833,97.2,16.0,44,100,7.76,overcast clouds
695,Suba,PH,2022-01-30 18:28:49,10.8438,121.0102,80.8,78,40,5.28,scattered clouds
696,Banda Aceh,ID,2022-01-30 18:25:02,5.5577,95.3222,76.84,82,47,6.42,scattered clouds
697,Porto Walter,BR,2022-01-30 18:28:50,-8.2686,-72.7439,81.16,73,99,2.95,overcast clouds
698,Patu,BR,2022-01-30 18:28:51,-6.11,-37.6367,89.98,39,78,6.33,broken clouds
